Station_Name,F1,TFR,FFR,MFR,FRI,Count,lat,lon,height
0ABI,0.5733427362482368,0.8017751479289941,0.3057575757575758,0.19822485207100593,0.2804821511358368,4314,68.354344529,18.816445476000013,431.388473
0AMS,0.6484641638225256,0.8878504672897196,0.1563573883161512,0.11214953271028037,0.14949201741654572,689,64.532527364,19.349900472,248.87056
0ANS,0.6841706639737439,0.9242837653478854,0.2254746835443038,0.07571623465211459,0.19181232750689972,6522,64.275928964,21.042974373999986,50.4494465
0ARA,0.7391616766467066,0.8399564507348939,0.1705642565972967,0.16004354926510614,0.16759002770083103,6498,59.659371012,12.600001592000012,130.9742086
0ART,0.6835154826958104,0.8470654627539503,0.23557894736842105,0.15293453724604966,0.2131248083409997,6522,66.049360279,17.84161695900002,471.748516
0AST,0.8560311284046693,0.9482758620689655,0.1834319526627219,0.05172413793103448,0.12982456140350876,570,56.137283782,12.951339689000008,80.8167962
0ATV,0.727090635953931,0.8648004764740918,0.17819533347098906,0.13519952352590828,0.16712664826740264,6522,58.198895112,16.00250977799999,129.3592475
0BAS,0.692063492063492,0.8650793650793651,0.0922722029988466,0.1349206349206349,0.09768378650553877,1986,64.792697282,20.036676693000004,275.1102355
0BEB,0.7101604278074866,0.9222222222222223,0.19217081850533807,0.07777777777777778,0.16682056017236072,6498,64.720652245,21.08399620900002,35.6720429
0BLG,0.6689798750867454,0.8087248322147651,0.12346938775510204,0.1912751677852349,0.13489819004524886,3536,67.180382895,20.594194699000013,549.7275959
0BOR,0.7965879265091863,0.9229599594526102,0.17193370165745855,0.07704004054738976,0.14312096029547552,6498,57.714960955,12.891354284999975,220.0292323
0DAJ,0.7392176529588766,0.8742586002372479,0.17121588089330025,0.1257413997627521,0.15946028825513647,6522,60.548129639,14.370683835000024,277.853444
0DAV,0.5892116182572614,0.7802197802197802,0.1649269311064718,0.21978021978021978,0.1736842105263158,570,63.870063674,20.412636266999986,70.9830731
0DOR,0.7405632115038944,0.8778409090909091,0.1751640585562847,0.12215909090909091,0.16126629422718808,5370,64.2636237,16.416474049999977,365.2199412
0ESN,0.7461139896373058,0.8966376089663761,0.16639411283728536,0.10336239103362391,0.15081563558017852,6498,58.587242943,16.09617252800001,69.4060043
0FRB,0.7364564250196285,0.8849056603773585,0.178858259170827,0.11509433962264151,0.16249798289494916,6197,60.141093501,14.370978848999982,346.7049832
0FUN,0.6487611121619066,0.8835651725914477,0.3560358000436586,0.1164348274085523,0.2847286108555658,6522,62.519392915,12.601078756999982,633.1719418
0GMA,0.7374017568192326,0.8831672203765227,0.19614079728583544,0.1168327796234773,0.17417969947868753,6522,59.946055011,12.909578932999976,149.8673437
0GRI,0.7351560342446838,0.8993243243243243,0.160650535501785,0.10067567567567567,0.14704078503526524,6522,59.625396764,17.251102355,52.3093472
0GST,0.6863565081024569,0.9143454038997214,0.21276175424733307,0.08565459610027855,0.18467220683287167,6498,64.149387202,20.784578978000013,79.3468998
0GVA,0.7205404053039779,0.8695652173913043,0.18516235100698725,0.13043478260869565,0.17126648267402636,6522,67.13663056,20.666695651,403.7805982
0HJV,0.7445358401880141,0.903593839132915,0.19249318515412037,0.09640616086708499,0.16666666666666666,6522,57.629445386,15.343362280999996,209.5341938
0HST,0.733995351785337,0.9308681672025724,0.2426975945017182,0.06913183279742766,0.19303894510886233,6522,58.350225293,11.840193272000022,58.8795941
0JFA,0.7458500286204923,0.8646317186463172,0.13639082751744766,0.1353682813536828,0.13615455381784727,6522,59.424178149,17.834401506999995,91.2566738
0KIE,0.685617103984451,0.8577507598784194,0.21734672954685258,0.14224924012158055,0.19840539711744865,6522,67.847127603,20.380154285000003,460.2208295
0KNA,0.7634798368826462,0.8934252386002121,0.18278404163052905,0.10657476139978792,0.16066481994459833,6498,56.521576029,13.318440474999989,113.9864145
0KOP,0.7323845886844845,0.8626328699918234,0.18926553672316385,0.1373671300081766,0.17486958493989566,4409,59.716464865,12.161074629999971,167.5694066
0KOR,0.6814024390243902,0.773356401384083,0.13640684410646386,0.22664359861591696,0.1558538404175988,2682,66.847888974,23.055544371,208.3786582
0KOS,0.7184672698243748,0.872093023255814,0.19034971226206285,0.12790697674418605,0.17441477085394,6066,67.217982058,20.649801398000022,403.9730723
0KOT,0.737544483985765,0.8506926629040533,0.19440192433850864,0.14930733709594665,0.18092609628948175,6522,57.762174327,12.037667247000002,170.1611198
0LBH,0.7610921501706485,0.8976423231742381,0.16852279890733346,0.10235767682576193,0.15081563558017852,6498,56.078051852,13.24295238000002,90.0629432
0LDA,0.6419354838709678,0.8396624472573839,0.3865546218487395,0.16033755274261605,0.31136044880785413,713,62.850715748,12.790872775000024,650.5777457
0LSE,0.6799116997792494,0.8473177441540578,0.1859635210150674,0.15268225584594222,0.17851646660510925,6498,63.183356449,17.065309747000015,138.3982778
0MAT,0.6668613138686131,0.8233597692862292,0.17448880233690361,0.17664023071377072,0.17494633547991414,6522,62.366047682,16.979294494999976,115.824726
0MGV,0.7343183718985224,0.8947010869565217,0.15801980198019802,0.10529891304347826,0.14612082183379332,6522,59.93139345,16.953554913000005,101.8921638
0MJO,0.7409402546523017,0.9043634190077705,0.18519282326252837,0.09563658099222953,0.16222017785955228,6522,58.324796299,15.124954527,159.8817045
0MLM,0.6804979253112033,0.8159203980099502,0.12028786840301577,0.18407960199004975,0.1312127236580517,3521,67.194135999,20.69802561,526.7431216
0MSE,0.7164179104477612,0.8551068883610451,0.16362308254200147,0.14489311163895488,0.15921787709497207,5370,65.875041047,19.457594345000015,372.132993
0NBG,0.7504670402989058,0.8870662460567823,0.15312943082843833,0.11293375394321767,0.14336093222937749,6522,60.06251581,15.92066999399998,176.2714134
0NHL,0.7411764705882352,0.8905961893054702,0.1703779366700715,0.10940381069452981,0.1551671266482674,6522,58.509281826,15.975603391999982,72.2174851
0NOS,0.7475695608447872,0.9230132450331126,0.15857760691975012,0.07698675496688742,0.14022346368715083,5370,64.910619204,19.48171622900003,339.9397692
0NUN,0.7557680315942633,0.909,0.21959310039805396,0.091,0.18015946028825514,6522,57.595878353,13.724801711999987,262.1308933
0OCK,0.7256687535571997,0.8268482490272373,0.13995983935742973,0.17315175097276264,0.1478074210364919,6522,60.890542319,16.716675130999988,123.5208877
0OKC,0.660053619302949,0.8212141427618412,0.1990842126219391,0.17878585723815876,0.19441888991107023,6522,57.251939517,16.46536500100001,52.3024875
0OSK,0.6758441558441559,0.8420711974110032,0.2017279485633916,0.15792880258899678,0.19135234590616376,6522,57.065641614,15.996815782999988,149.8440324
0OST,0.7089997612795418,0.8427922814982974,0.19789915966386554,0.15720771850170262,0.18690585709904936,6522,63.442796397,14.858074331000012,490.2414852
0PAU,0.7123015873015873,0.8703030303030304,0.19417077175697867,0.1296969696969697,0.17785955228457528,6522,57.466411706,15.510574716000008,200.2046543
0REJ,0.7469238443631527,0.9197379197379197,0.17521141649048627,0.08026208026208026,0.15204795204795205,5005,58.825421525,15.930156338000018,94.0289042
0REN,0.6515353805073432,0.7360482654600302,0.12141357592722184,0.26395173453996984,0.14825333712013633,3521,61.364766114,16.617282551000017,121.0651153
0RIN,0.7224967490247075,0.8692115143929913,0.17424857839155158,0.13078848560700876,0.1636001226617602,6522,58.334613202,16.44899714500002,85.7563289
0RYF,0.7484378616061097,0.9094488188976378,0.19519392917369308,0.09055118110236221,0.16666666666666666,6522,56.563161223,13.932192457999976,173.7428901
0SBY,0.6280357903706859,0.8045851528384279,0.26641074856046065,0.19541484716157206,0.24794092587333144,3521,56.631008268,16.51285846600001,82.2823366
0SJN,0.728695166247555,0.8751677852348994,0.15600158982511925,0.12483221476510067,0.14888071143820913,6522,65.346163689,21.241888972000027,49.2646181
0SKO,0.6818538884524745,0.868,0.2025089605734767,0.132,0.18629254829806807,6522,63.378212639,17.883639769000013,199.7678766
0SLU,0.5375722543352601,0.775,0.29555555555555557,0.225,0.2807017543859649,570,65.431554837,16.24543414300001,408.9446928
0STJ,0.7619298708146586,0.8919753086419753,0.14924149241492415,0.10802469135802469,0.13896583564173592,6498,58.730062236,16.41070794000001,114.9836139
0STN,0.7204419889502762,0.8907103825136612,0.18112244897959184,0.1092896174863388,0.16407263294422827,4626,59.375643878,17.021522290999997,54.603942
0STS,0.7191065792668124,0.8506605399195865,0.1885642211477822,0.14933946008041354,0.17805478608802708,6498,63.85239687,15.56121643900002,339.8264578
0SVS,0.7149829184968277,0.8582308142940832,0.19231568016614745,0.14176918570591682,0.17908616988653786,6522,56.261570784,14.769500187999997,103.2915925
0SYS,0.7150979153506002,0.8614916286149162,0.23731048121292023,0.1385083713850837,0.20745170193192272,6522,60.710314313,12.885723534000022,197.7714401
0TAV,0.7103315976979995,0.8828337874659401,0.17510882469331224,0.11716621253405994,0.16206685065930695,6522,64.037357467,20.046157058999995,162.87982
0TOC,0.7193486590038315,0.8582857142857143,0.1946082561078349,0.1417142857142857,0.18036318867343798,6498,59.508379434,11.833527064999998,171.0758713
0UME,0.6612641815235007,0.8464730290456431,0.2042755344418052,0.15352697095435686,0.19298245614035087,6498,63.578141405,19.50960355699999,54.7586086
0UPV,0.716821639898563,0.8760330578512396,0.1634958382877527,0.12396694214876033,0.15466297322253,6498,59.522507465,17.90948365600002,46.8058958
0VAN,0.7359685520856082,0.9083557951482479,0.22262695521748446,0.09164420485175202,0.18537258509659613,6522,58.693129937,12.035008634000008,169.8018553
0VEN,0.7282229965156795,0.836,0.11397423191278494,0.164,0.12390786338363781,1259,60.952648306,13.908605315999978,318.0659835
0VRI,0.7293506493506493,0.836212030970816,0.15837290935370638,0.16378796902918405,0.1597669426556271,6522,66.431519368,20.62623008499997,142.4359831
0YTT,0.691562278421177,0.8288951841359773,0.2108471725877654,0.17110481586402265,0.20009199632014718,6522,63.318168951,14.168367293000015,338.9908497
1ASA,0.7643196739868688,0.9188894937397931,0.1903948772678762,0.08111050626020685,0.15961361545538177,6522,58.241714755,12.423083272999977,112.7335249
1GIM,0.7021777516185991,0.8419195483415667,0.15435847208619,0.15808045165843332,0.1551671266482674,6522,60.172801242,18.169957527000008,46.4198885
1IDR,0.6883568651524453,0.9028448738593666,0.28804464477355657,0.09715512614063339,0.23351732597362773,6522,61.8577507,12.713272695,493.1344083
1LAT,0.6712856043110085,0.8210922787193974,0.1348497156783103,0.17890772128060264,0.14266622118275976,2993,65.382515587,20.339151949999973,361.676467
1LIN,0.7126379137412236,0.8717791411042944,0.19248151191454396,0.12822085889570553,0.17636195752539244,6498,60.331756154,14.525482366000006,295.601168
1LUG,0.7475258918296893,0.8869470234844348,0.18972500532935407,0.11305297651556527,0.1681999386691199,6522,58.642138919,13.692644975999997,95.9682421
1ROB,0.6722647567300568,0.8630310716550412,0.2257671205039626,0.13696892834495877,0.20421668205601723,6498,56.207212485,15.285529230000009,70.5641571
1SSJ,0.5684848484848485,0.8257042253521126,0.3111675126903553,0.1742957746478873,0.2805358550039401,2538,67.488381247,18.34132213300001,424.2646921
2HER,0.7636925795053003,0.9250936329588015,0.19987105093488072,0.0749063670411985,0.16406010426249618,6522,58.076184055,13.018045520999976,146.1511949
2SKV,0.7578609134725728,0.9071428571428571,0.1893971782813168,0.09285714285714286,0.162357648507233,6498,58.387356647,13.840113592000025,209.0741951
8SKE,0.6998264893001735,0.9084084084084084,0.20492170022371364,0.0915915915915916,0.17890382626680454,5802,64.879207291,21.048156532000007,81.4761599
ACER,0.0,0.0,0.0,0.0,1.0,82,40.786657985,15.942362892000006,764.7072241
ACHU,0.785529715762274,0.8735632183908046,0.09651898734177215,0.12643678160919541,0.10297766749379653,806,47.124445632,3.680338274999997,327.2140623
ACQ1,0.6874708896134141,0.7584789311408017,0.12344280860702152,0.24152106885919836,0.14894561598224196,4505,42.743975119,11.864793831999975,449.7147562
ADY1,0.7717647058823529,0.8913043478260869,0.25245901639344265,0.10869565217391304,0.1983640081799591,978,37.760583557,38.261242650999975,741.1563987
AFAL,0.6758620689655171,0.6901408450704225,0.11904761904761904,0.30985915492957744,0.16725978647686832,281,46.527143029,12.174515489999976,2284.0802404
AGN2,0.6612758310871518,0.9292929292929293,0.25493060628195763,0.0707070707070707,0.21359773371104815,1765,44.172382371,0.611635098000022,113.7953642
AIO2,0.5449218749999999,0.808695652173913,0.11872959335114278,0.19130434782608696,0.1254711900915455,3714,39.061356722,-1.059182936,662.8651205
AKSR,0.6451612903225806,0.8095238095238095,0.2916666666666667,0.19047619047619047,0.2619047619047619,714,38.370390773,33.998149522999995,1005.8673544
ALCO,0.5397859469520707,0.7483870967741936,0.13815903949886899,0.25161290322580643,0.15164060104262497,6522,38.697987274,-0.473543953,640.1206915
ALIG,0.6038834951456312,0.8371467025572006,0.2637571157495256,0.16285329744279947,0.24156305506216696,3378,42.104647115,43.649014178000016,838.1731659
ALMZ,0.6686746987951807,0.8473282442748091,0.16100178890876565,0.15267175572519084,0.15942028985507245,690,41.503123891,-2.538966951,1012.1376566
ALOR,0.5114503816793894,0.43790849673202614,0.0626865671641791,0.5620915032679739,0.15552855407047386,1646,39.934361632,4.140156337999997,189.5311072
AMA1,0.702439024390244,0.8022284122562674,0.06001734605377277,0.1977715877437326,0.07527379299706925,6483,38.208704082,-7.227874492,266.1322118
AMPE,0.7611657834973504,0.8847338319401672,0.23668639053254437,0.11526616805983282,0.19421360418590336,6498,46.4147117,12.799037820000024,616.4476394
AMS5,0.7325383304940376,0.8796025715955581,0.1974353305328322,0.12039742840444184,0.17629130574270133,6234,48.122246802,14.870986481999978,346.7299393
ANG3,0.689376961004034,0.7807106598984772,0.13279510022271715,0.21928934010152284,0.15140922001310902,4577,40.930922135,15.183935345999998,921.2520722
AOU2,0.3888888888888889,1.0,0.26506024096385544,0.0,0.24444444444444444,90,44.710971502,5.057803547999981,263.2222783
APE2,0.7972027972027972,0.9083665338645418,0.19375,0.09163346613545817,0.15868673050615595,4386,52.211927249,5.96230231200002,115.8919127
APK1,0.0,0.0,0.0,0.0,1.0,58,39.040995048,38.49331043199999,1204.6791276
APT2,0.6604215456674474,0.826171875,0.14392678868552414,0.173828125,0.14917695473251028,2916,43.876292126,5.388248617999977,286.2504271
ARA1,0.6463527239150508,0.6616257088846881,0.0804416403785489,0.3383742911153119,0.12495921696574225,3065,46.494616645,15.508775413000023,1292.085716
ARC2,0.6939130434782609,0.8471337579617835,0.1845748187211602,0.15286624203821655,0.17706237424547283,1988,46.673172324,0.6533862599999907,186.9537425
ARCI,0.5864661654135338,0.9069767441860465,0.18613138686131386,0.09302325581395349,0.17350157728706625,634,48.333701282,0.8364375070000278,165.8652209
ARDA,0.6592920353982301,0.7061611374407583,0.18290258449304175,0.2938388625592417,0.21568627450980393,714,41.111261461,42.699063035999984,1834.092728
ARDL,0.6850828729281767,0.8051948051948052,0.18340611353711792,0.19480519480519481,0.18627450980392157,306,51.915784232,0.9618914089999748,91.5267823
ARIB,0.7342342342342343,0.8049382716049382,0.14909781576448244,0.19506172839506172,0.16186556927297668,1458,42.935057078,-1.262139534,1037.4265772
ARNA,0.7472150814053129,0.872,0.1861402095084609,0.128,0.1694428489373923,1741,47.94652209,0.1809004059999779,96.7856417
ARNH,0.7719601903937691,0.9301355578727841,0.2155576382380506,0.06986444212721585,0.17038473973488522,6186,51.952649038,5.873855108999976,76.4693244
ARQT,0.7221238938053097,0.8464730290456431,0.16348773841961853,0.15352697095435686,0.16102564102564101,3900,42.754965337,13.19872520299998,1659.9164303
ASAP,0.6822118587608261,0.8414133114215283,0.3482837528604119,0.15858668857847166,0.2804232804232804,3402,53.251347464,-3.480108111,103.3999768
AT02,0.0,0.0,0.0,0.0,1.0,49,43.396208508,12.489928469999995,676.5460853
ATAL,0.5753554502369668,0.7339782345828295,0.14331142675429298,0.2660217654171705,0.16161616161616163,5544,38.653058108,22.99935452699998,135.2799162
ATFO,0.6817752596789425,0.7106299212598425,0.12591119946984758,0.28937007874015747,0.1670798215171046,4034,43.370055821,12.567118225999993,1020.4445142
ATPU,0.669182389937107,0.7578347578347578,0.16435826408125578,0.24216524216524216,0.18340306834030684,1434,48.015764601,13.722994633999974,488.5346731
ATST,0.6759656652360515,0.6454918032786885,0.06677018633540373,0.35450819672131145,0.12479338842975207,2420,42.168277773,9.336053470000024,740.4225921
AUBO,0.6639231824417009,0.6157760814249363,0.15798319327731092,0.3842239185750636,0.2479757085020243,988,46.49457387,6.39379068400001,557.2212374
AUBT,0.5660377358490567,0.6818181818181818,0.1893491124260355,0.3181818181818182,0.215962441314554,426,43.650716264,0.7506268910000244,276.0712868
AUT1,0.4230769230769231,1.0,0.23622047244094488,0.0,0.21739130434782608,138,40.566818593,23.00371843699997,150.0845264
AVEL,0.6180851063829788,0.6128691983122363,0.06324324324324325,0.3871308016877637,0.11049553708833487,6498,41.881609362,0.7505346880000161,682.6409436
AXPV,0.5909537856440511,0.6662971175166297,0.09450080085424453,0.33370288248337027,0.12758779328323877,6521,43.491213889,5.333195261000014,229.3665779
BACA,0.6298299845440495,0.7897286821705426,0.13616317530319735,0.21027131782945738,0.14797652147049736,6474,46.562060808,26.912215307999983,219.1364119
BAES,0.6446776611694154,0.7789855072463768,0.09665019220208676,0.2210144927536232,0.11301859799713877,4194,44.029211,23.33109480899998,101.0345581
BAIA,0.6625355021946812,0.7959057071960298,0.2011517893870835,0.20409429280397023,0.2018844609206055,6474,47.651787603,23.55771612799998,270.8469415
BERH,0.658520027155465,0.890452876376989,0.3449170124481328,0.10954712362301101,0.2748633879781421,5490,60.398123596,5.319060911000008,53.8068022
BGDR,0.746031746031746,0.9038461538461539,0.20300751879699247,0.09615384615384616,0.17297297297297298,185,43.889062395,11.894963435000022,740.9537926
BGGN,0.7659574468085105,0.8622754491017964,0.1138353765323993,0.1377245508982036,0.11924119241192412,738,51.012784395,4.191016660999992,65.9757835
BIEL,0.803315269365636,0.8333333333333334,0.13488543976348855,0.16666666666666666,0.1462778568041726,4218,45.560747024,8.04805501200002,480.5174087
BILG,0.6277702397105382,0.8060394889663183,0.3110478899952584,0.19396051103368175,0.27710437710437713,2970,50.531510835,22.71857251,242.9100939
BINE,0.6476190476190476,0.8592057761732852,0.12087912087912088,0.1407942238267148,0.1235097758702909,2097,41.848163814,0.2959306679999827,346.8925796
BLAN,0.509090909090909,0.6666666666666666,0.14184397163120568,0.3333333333333333,0.16666666666666666,324,44.930400303,-0.562091775,55.9105109
BLVR,0.7324200913242009,0.7652671755725191,0.15419501133786848,0.23473282442748092,0.18014140793114047,6506,47.323482482,6.611281099999985,714.5188604
BNA1,0.5797101449275363,0.7692307692307693,0.17898832684824903,0.23076923076923078,0.18770226537216828,618,37.232379366,-8.12668796,332.9724042
BOR1,0.7036368326025277,0.8621997471554994,0.18846153846153846,0.13780025284450062,0.17617295308187672,6522,52.276956323,17.073455608000017,124.3653538
BOT1,0.6677977604343399,0.7987012987012987,0.13918507235338917,0.2012987012987013,0.15098704503392968,6484,41.692912061,-7.658080588,585.6419414
BOUS,0.5,1.0,0.11764705882352941,0.0,0.1111111111111111,18,46.287968472,2.2357539619999898,558.4815845
BRAE,0.5813953488372093,0.9090909090909091,0.26693227091633465,0.09090909090909091,0.23529411764705882,306,57.006738054,-3.395600229,400.8966535
BRAG,0.727427597955707,0.7439024390243902,0.15122377622377622,0.25609756097560976,0.18626309662398138,1718,41.553333492,-8.428909171,250.6459899
BRAS,0.7224435590969457,0.8127490039840638,0.1531751570132589,0.18725099601593626,0.162015503875969,3870,44.122165767,11.113084373999982,901.2007293
BRET,0.7326295114166462,0.8791985857395404,0.2009090909090909,0.12080141426045964,0.17861243234377563,6097,48.610336165,2.3149781440000083,140.277743
BRIV,0.6558704453441295,0.8906856403622251,0.2648951629645007,0.1093143596377749,0.2270941379852271,6363,45.157009573,1.488010542999973,158.1403746
BRMF,0.6776141028737019,0.8351190476190476,0.21850475010326312,0.16488095238095238,0.2046918123275069,6522,45.726075737,4.938394080000023,256.8461239
BRMZ,0.7433302667893285,0.8278688524590164,0.16469594594594594,0.1721311475409836,0.16686602870813397,1672,48.00145505,0.4775102610000203,158.1669884
BRN1,0.6138433515482695,0.823960880195599,0.218769422001243,0.17603911980440098,0.21010901883052527,2018,44.668159106,4.1692376999999965,523.356171
BRS1,0.6782911944202268,0.8901601830663616,0.28108581436077057,0.10983981693363844,0.233692210259658,3158,52.741080173,22.83861121500001,168.5158343
BUIT,0.6739293764087152,0.8683446272991288,0.1527227206342583,0.13165537270087124,0.14898729831788535,5826,41.000611286,-3.636857412,1032.659882
BUS1,0.4751381215469613,0.6370370370370371,0.1709090909090909,0.362962962962963,0.19791666666666666,960,45.675855661,0.6396311899999887,222.4374127
BUSL,0.7016129032258065,0.953662182361734,0.35507749248207265,0.04633781763826607,0.2571879936808847,6330,45.136808096,7.152159417000007,496.1880728
CAAL,0.38235294117647056,0.35135135135135137,0.06751687921980495,0.6486486486486487,0.1383399209486166,1518,37.221093392,-2.54760571,2210.6838256
CAFI,0.6699909338168631,0.8183831672203765,0.18907140462621522,0.18161683277962348,0.18733916623777663,3886,43.329178298,11.966234885999995,592.5750738
CAGG,0.0,0.0,0.0,0.0,1.0,50,40.557279712,15.51141808699998,1176.7661906
CAN1,0.6706827309236948,0.7136752136752137,0.20208333333333334,0.2863247863247863,0.22969187675070027,714,40.147621194,26.41112716200001,64.4988798
CARC,0.6720128307939054,0.7905660377358491,0.10959911732254506,0.20943396226415095,0.12588488765774083,6498,42.378154371,-1.440804085,420.3927206
CARV,0.4906794948887553,0.5418326693227091,0.0989552533017938,0.4581673306772908,0.14538276690696877,5826,38.045884675,-1.9676765,902.40544
CAS3,0.5787037037037036,0.6469979296066253,0.1037563822027717,0.3530020703933747,0.14108527131782947,6450,41.882886291,2.904171799999972,251.7959246
CAT1,0.6835443037974683,0.7370689655172413,0.2013793103448276,0.2629310344827586,0.2213420316868593,2146,54.371898358,-1.725143668,214.2092479
CAUS,0.681299385425812,0.7785953177257525,0.15709844559585492,0.2214046822742475,0.17231012658227848,6320,44.181556625,1.615044255999976,226.9599937
CBRA,0.6633712308452793,0.8461538461538461,0.09906078327130959,0.15384615384615385,0.10581106277190802,6436,39.818993942,-7.512176317,436.5477162
CDBC,0.6612226881483116,0.8150163220892275,0.25776531492666094,0.18498367791077258,0.23710225517454434,6474,49.523521306,0.7144117369999776,56.0333739
CER2,0.6700999697061496,0.7905646890636169,0.1568472906403941,0.20943531093638312,0.16821130676552362,6474,45.827915193,13.339133564000008,59.6624513
CERA,0.4745762711864407,0.7,0.2976190476190476,0.3,0.2980769230769231,104,41.597740548,14.01797447299998,904.3837223
CEVY,0.7299465240641712,0.8868435300487276,0.2241340782122905,0.11315646995127233,0.19171148370768745,6322,49.287744465,5.287130530000013,246.2404103
CH2T,0.6821561338289963,0.9039408866995073,0.22696629213483147,0.0960591133004926,0.19643882825962092,1741,48.059997336,1.3303828940000244,193.4093374
CHDY,0.7,0.9767441860465116,0.42424242424242425,0.023255813953488372,0.2868525896414343,251,49.712146851,4.76383526699999,208.2391858
CHI8,0.7591069330199766,0.8522427440633246,0.13644688644688643,0.14775725593667546,0.13936097892590074,1471,47.165860183,0.2535196559999804,89.1579537
CHLN,0.7508532423208191,0.8855098389982111,0.238395673726904,0.11449016100178891,0.19688342822894817,3337,49.80974963,2.801609375999988,146.2728973
CHRE,0.7231300345224396,0.8771635957565606,0.21699779249448123,0.12283640424343942,0.19031798766018035,6321,48.37185912,6.281296644999998,339.62315
CIMO,0.5341146923398912,0.42028985507246375,0.05123131046613896,0.5797101449275363,0.1834817012858556,6066,44.1935097,10.700873652999974,2211.5154041
CLTR,0.6715195632393084,0.7221135029354208,0.04101891740026222,0.27788649706457924,0.06170940170940171,5850,38.820283871,-3.756351633,785.5995921
CNG1,0.49595141700404854,0.620253164556962,0.1876010781671159,0.379746835443038,0.22133333333333333,2250,55.85502995,37.516038390000006,191.7143938
COR1,0.7667514843087362,0.8828125,0.146358066712049,0.1171875,0.13881877839475013,1981,48.593894736,2.4755845970000223,141.4325043
COUT,0.6582633053221288,0.7679738562091504,0.17061143984220908,0.23202614379084968,0.18484848484848485,1320,45.041051239,-0.117602525,81.7575484
CPAR,0.6968503937007874,0.8607902735562311,0.2056592167315973,0.139209726443769,0.18889911070223858,6522,50.039551222,15.783251478000013,283.2687061
CRAK,0.6503187837175085,0.8857715430861723,0.24975124378109453,0.11422845691382766,0.21864458754983135,6522,50.102392931,13.729242382999985,381.8669398
CREW,0.6996946046827281,0.8842195540308748,0.32023911187019644,0.11578044596912522,0.2522805017103763,3508,53.096099068,-2.394313325,119.8649304
CRJA,0.5404101326899879,0.5067873303167421,0.07688679245283019,0.49321266968325794,0.148711943793911,2562,37.801586007,13.00450427200002,578.8527243
CRLW,0.7016848364717542,0.8984771573604061,0.34410019775873435,0.10152284263959391,0.2611713665943601,2305,52.828136785,-6.932783197,118.6684402
CROL,0.650740563784042,0.850187265917603,0.30983772819472616,0.149812734082397,0.26361341507392716,2773,45.277698585,5.888976822000018,288.7575017
CRSN,0.7591292134831461,0.8201820940819423,0.15488099344601586,0.17981790591805766,0.16267488736068295,4217,45.192439548,8.105772915999978,211.6712936
CRVA,0.7232237539766703,0.8546365914786967,0.2946298984034833,0.14536340852130325,0.23988970588235295,1088,49.227622304,2.9075615450000214,153.7120959
CTAB,0.7016848364717542,0.8687116564417178,0.20237121831561733,0.1312883435582822,0.1846059490953695,6522,49.409800265,14.680224216,496.2237733
CYLM,0.5611353711790393,0.7178770949720671,0.24631751227495907,0.28212290502793297,0.25443037974683547,1580,46.291134195,4.780117093000001,242.9035268
D006,0.7028586414896407,0.8338518979464842,0.18335803514715224,0.16614810205351588,0.17898894154818326,6330,53.312097326,13.867827976,96.9787053
D007,0.7113151498784769,0.831964624131396,0.1691594691384032,0.16803537586860393,0.1688783570300158,6330,52.947978251,12.392233341000008,101.4357081
D012,0.7391423108440317,0.8860510805500982,0.1626067041432438,0.11394891944990176,0.15086887835703003,6330,51.940964729,13.899536925000008,114.3866635
D014,0.7295149355987942,0.8773895847066578,0.16642426760856016,0.12261041529334213,0.15592417061611374,6330,51.73677353,14.331253650999995,139.8427588
D018,0.7261354364971444,0.8444022770398482,0.15943850827571757,0.1555977229601518,0.15848284545168398,6354,52.814478698,12.766251124000007,94.8668424
D025,0.7142479513613534,0.8232784887263863,0.16783365160195204,0.17672151127361366,0.1701290525653132,6354,53.072347157,11.867906328000004,100.1809978
D136,0.8947368421052632,0.9444444444444444,0.125,0.05555555555555555,0.09523809523809523,42,51.565476511,12.982825239000022,154.0171401
D142,0.0,0.0,0.0,0.0,1.0,18,51.297144864,13.740837150000004,199.4629456
D148,0.8947368421052632,0.9444444444444444,0.125,0.05555555555555555,0.09523809523809523,42,50.492431849,12.100546622000024,463.4194469
D153,0.9714285714285714,0.9444444444444444,0.0,0.05555555555555555,0.023809523809523808,42,51.45054697,14.188348758000018,174.5725609
D204,0.6943172636681928,0.8386467143786597,0.1898138240958699,0.16135328562134027,0.18276972624798712,6210,50.984438165,12.425535003999984,286.5103615
D211,0.6922339405560882,0.8574821852731591,0.2318969346956908,0.14251781472684086,0.2075654704170708,6186,50.58386981,11.810730487,501.8076637
D221,0.6758508914100486,0.8633540372670807,0.21045998739760555,0.13664596273291926,0.1932367149758454,6210,51.122620084,11.423025617000008,260.648657
D391,0.661320172732881,0.8507936507936508,0.23261758691206544,0.1492063492063492,0.2122969837587007,2586,48.58570316,9.802378067000006,736.2776532
D448,0.7753623188405797,0.84251968503937,0.13003095975232198,0.15748031496062992,0.13777777777777778,450,50.088089682,8.226699833999987,241.7351845
D450,0.8089887640449439,0.8181818181818182,0.07941176470588235,0.18181818181818182,0.10805084745762712,472,49.874976406,8.656841988999986,223.9544599
D457,0.6237623762376239,0.8456375838926175,0.2721518987341772,0.15436241610738255,0.24398073836276082,623,51.182898182,10.051231219999975,276.4141205
D531,0.7487955953200275,0.8802588996763754,0.21334310850439883,0.11974110032362459,0.1841574167507568,5946,49.992109978,6.194859864000023,559.440767
D593,0.7021426889569108,0.8433257918552036,0.21102093122597182,0.15667420814479638,0.19612403100775194,6450,52.281256146,8.912099580000017,120.588575
D598,0.7284798534798534,0.8708264915161467,0.2054942677914774,0.1291735084838533,0.18387596899224806,6450,52.02218594,8.534339251999995,181.1836213
D624,0.7557058326289096,0.8948948948948949,0.2124887690925427,0.10510510510510511,0.17922480620155037,6450,50.867599969,7.056411763000028,114.120526
D629,0.7547405709522818,0.9082246740220662,0.22307001795332138,0.09177532597793381,0.18248062015503877,6450,51.252616914,6.720165978000011,80.9900004
DAUN,0.7032258064516129,0.8927108927108927,0.2463315641586013,0.10728910728910729,0.20795660036166366,4424,50.199864375,6.821211491999975,511.1265215
DBMH,0.7280040221216693,0.8691476590636255,0.2231404958677686,0.13085234093637454,0.19537739256049116,2769,48.6038153,6.364102446999993,276.8982672
DELF,0.7316972571664261,0.8821481849825957,0.23586787851917534,0.11785181501740427,0.1994786875191659,6522,51.986120128,4.387587585999995,74.3904635
DENT,0.7409470752089137,0.9094017094017094,0.22769450392576732,0.0905982905982906,0.18731117824773413,1986,50.9337051,3.3996694109999908,63.8888891
DIDZ,0.6704545454545454,0.8027210884353742,0.30526315789473685,0.19727891156462585,0.26851851851851855,864,55.316674011,26.67303818099998,169.3268232
DIEN,0.7061503416856492,0.9337349397590361,0.3232876712328767,0.06626506024096386,0.24293785310734464,531,45.177721806,2.848265260000005,1235.6062713
DIV3,0.7280701754385964,0.9431818181818182,0.4672131147540984,0.056818181818181816,0.29523809523809524,210,39.370045313,38.11690644999999,1098.6642435
DLF1,0.729513247073321,0.8920140632847815,0.2458175329020745,0.10798593671521849,0.20342910101946246,6474,51.986020478,4.387463099999991,75.8359423
DNMU,0.6691176470588236,0.8348623853211009,0.16326530612244897,0.1651376146788991,0.16363636363636364,550,48.455123284,35.06274503700001,174.6144879
DNZ1,0.4615384615384615,0.924812030075188,0.47676419965576594,0.07518796992481203,0.4019607843137255,714,37.778799539,29.043742151999997,537.9909536
DOCO,0.7215189873417721,0.782967032967033,0.15128755364806867,0.21703296703296704,0.1697530864197531,1296,49.140228795,5.934538750999991,296.397643
DOER,0.7231239708303927,0.8145204027556969,0.21654883477350093,0.18547959724430313,0.20627409744128988,5706,47.549516879,15.273317034000002,849.005367
DOET,0.7657594789485926,0.914952751528627,0.19902120717781402,0.08504724847137299,0.16535303776683086,6090,51.964135473,6.269197238000004,73.0964521
DOMS,0.6600859735710873,0.9628425452856479,0.494823019503973,0.03715745471435207,0.33856644465588326,6306,46.119046311,8.286331379999979,365.6390108
DROU,0.7222222222222222,0.8013698630136986,0.18154761904761904,0.19863013698630136,0.18672199170124482,482,46.15900717,1.1537028270000178,293.4939556
DW26,0.7704722056186492,0.9064697609001406,0.20274584929757344,0.09353023909985936,0.1686429512516469,4554,52.692739196,6.318034284000021,49.1319128
ECQU,0.702928870292887,0.7813953488372093,0.15175718849840256,0.2186046511627907,0.16884661117717004,841,50.560745768,2.4473761149999973,95.8537197
EDIB,0.676623107239162,0.8907700709994538,0.35252918287937746,0.10922992900054615,0.27418220189940207,5686,55.92836211,-3.344088614,113.6856735
EEXT,0.8033088235294118,0.9297872340425531,0.1775670372792675,0.07021276595744681,0.14368845120859444,4468,53.024182063,6.763263870000003,47.886596
EMR2,0.5937500000000001,0.9156626506024096,0.354014598540146,0.08433734939759036,0.2913165266106443,714,39.023494344,31.15653645399999,1005.5222941
ENGE,0.8067173637515842,0.9549887471867967,0.17075442409189692,0.0450112528132033,0.1339481774264383,4554,53.212753709,6.643743089999987,42.4294022
ENLO,0.7240143369175627,0.9901960784313726,0.30158730158730157,0.00980392156862745,0.2175141242937853,354,68.191290037,17.791796691000002,778.9938397
ENTZ,0.7291759465478842,0.8661375661375661,0.20803629293583928,0.13386243386243385,0.1865316766375211,6519,48.549360116,7.639902563000021,204.2698121
EPEN,0.6878093492208982,0.9164631167562286,0.34419231633340824,0.08353688324377137,0.2620806401969837,6498,50.763140031,5.931072594999989,183.9335939
ERLA,0.6431159420289855,0.7941834451901566,0.2164874551971326,0.2058165548098434,0.21389793702497287,1842,49.586493203,11.004573847000016,337.8217918
ESKD,0.5507246376811594,0.7307692307692307,0.13714285714285715,0.2692307692307692,0.15422885572139303,402,55.312398768,-3.206930755,297.4498365
ESLN,0.6251154201292706,0.7472406181015453,0.1272647893473041,0.25275938189845476,0.1479861490796428,5487,37.693416695,14.974332973999992,1775.2569839
FCOA,0.604255319148936,0.6513761467889908,0.0392156862745098,0.3486238532110092,0.061528283162421434,3023,41.081908427,-7.144223676,487.0846632
FENG,0.8037037037037037,0.9041666666666667,0.09573241061130335,0.09583333333333334,0.0957542908762421,1107,48.090221013,2.794531972000016,158.4468372
FET2,0.7255589653660676,0.8789166224110462,0.2318840579710145,0.1210833775889538,0.19876170820765202,6299,49.200891533,3.5093399770000246,169.0033501
FHNW,0.669970267591675,0.7824074074074074,0.19638455217748563,0.2175925925925926,0.20194057004244997,1649,47.534636592,7.641906590000019,395.5829819
FIED,0.6593406593406594,0.6417112299465241,0.12127659574468085,0.3582887700534759,0.1887366818873668,1314,46.772712299,5.714856827999995,599.6482774
FIHO,0.5967130214917826,0.8708487084870848,0.4973730297723292,0.12915129151291513,0.37885985748218526,842,64.694345507,-22.147983615,125.2136917
FINS,0.5707182320441988,0.7223776223776224,0.23015715138253431,0.2776223776223776,0.24066904135047235,6457,60.229124598,19.95127547300001,53.3515086
FJOC,0.38568588469184895,0.8584070796460177,0.6411378555798687,0.1415929203539823,0.5421052631578948,570,64.874932438,-18.006048932,1034.8419992
FLDB,0.6651085141903171,0.827930174563591,0.15598667450519302,0.17206982543640897,0.15905486837932128,6306,46.95309634,15.882520750000026,348.3077911
FLDK,0.7104323681078936,0.8932668329177057,0.29132569558101473,0.10673316708229426,0.23241006049028973,6282,47.231350957,9.580606878000026,570.3756366
FLER,0.8085106382978725,0.8189655172413793,0.08921933085501858,0.1810344827586207,0.11688311688311688,385,48.746583875,-0.549835873,271.7007245
FLRC,0.6649999999999999,0.7916666666666666,0.14754098360655737,0.20833333333333334,0.15971394517282478,839,44.325273219,3.594507702999977,607.8812832
FOUE,0.6877922077922077,0.9310829817158931,0.4159758854559156,0.06891701828410689,0.29489695780176645,2038,47.902722534,-3.98032267,64.1258438
FRA2,0.5453257790368272,0.8297413793103449,0.30564603691639525,0.17025862068965517,0.27840416305290544,2306,48.917945628,24.710310822999983,302.3257011
FVF1,0.6282608695652173,0.8140845070422535,0.06657018813314038,0.18591549295774648,0.07598311486336369,4501,38.72050656,-8.320498285,237.5457975
GANP,0.6880867932401419,0.8865591397849463,0.2754182754182754,0.11344086021505376,0.22922416436675866,6522,49.034713801,20.32293630599997,746.093422
GAPC,0.7099567099567099,0.8065573770491803,0.0988857938718663,0.19344262295081968,0.1154508902929351,1741,44.500727842,6.043524251000008,753.7390134
GBLM,0.5577557755775576,0.45066666666666666,0.039515615041427664,0.5493333333333333,0.13786008230452676,1944,37.990349687,14.026145783000004,1036.3993601
GDA1,0.6916010498687665,0.9261862917398945,0.37943262411347517,0.07381370826010544,0.2769593400117855,1697,54.351412552,18.641087898000023,63.1832656
GDRS,0.6610169491525424,0.8357142857142857,0.24744897959183673,0.16428571428571428,0.22556390977443608,532,50.598422961,29.44646559799997,196.9232579
GIE1,0.6855345911949685,0.8650793650793651,0.21957671957671956,0.1349206349206349,0.1984126984126984,504,47.613009372,2.7815494710000053,212.2188234
GLOG,0.7492260061919506,0.9307692307692308,0.22570532915360503,0.06923076923076923,0.18040089086859687,449,51.665259306,16.074287054000024,144.4285806
GLSV,0.44881889763779526,0.5089285714285714,0.23224043715846995,0.49107142857142855,0.2928870292887029,478,50.364183115,30.496733055999982,226.3148073
GOML,0.6637094538397561,0.8306731436502429,0.19071049006101162,0.1693268563497571,0.18598589389757744,6522,52.419996536,30.96679925500001,174.0537886
GOP6,0.6719430154333201,0.8372781065088757,0.19064025265575654,0.16272189349112426,0.18434511896820102,4497,49.913670327,14.78560852999999,592.5854146
GOZZ,0.7788395904436859,0.8483271375464684,0.15584415584415584,0.1516728624535316,0.15450643776824036,4194,45.746746129,8.433403693000002,416.6086994
GRAZ,0.7019167217448777,0.7645788336933045,0.11399682791435369,0.23542116630669546,0.14021451888698896,6433,47.067129885,15.493480182999974,538.2938602
GREJ,0.6850553922676916,0.8198051948051948,0.23033463711429814,0.18019480519480519,0.21596899224806201,6450,55.758663529,9.571201140000028,136.2503649
GRJF,0.6153846153846154,0.7207207207207207,0.1584385763490241,0.27927927927927926,0.18298261665141813,1093,45.302939528,1.5139502900000252,458.5726113
GRSL,0.6658823529411765,0.6927784577723378,0.1217357910906298,0.3072215422276622,0.1660333235895937,3421,43.225605858,-6.877095255,691.2665577
GUIJ,0.7300215982721382,0.8297872340425532,0.1784068466096116,0.1702127659574468,0.176056338028169,2130,40.546712155,-5.677753681,1065.5347993
GUIL,0.0,0.0,0.0,0.0,1.0,18,44.662245228,6.6618688309999925,1171.0544447
GUMM,0.6506024096385542,0.7883211678832117,0.19037199124726478,0.2116788321167883,0.19528619528619529,594,46.656859971,13.76680706000002,557.5476003
GUSS,0.636144578313253,0.7292817679558011,0.10839532412327312,0.27071823204419887,0.13458110516934046,1122,47.074179614,16.319132717000002,281.9496918
HAAJ,0.7317073170731707,0.9375,0.24390243902439024,0.0625,0.19298245614035087,114,63.816068435,25.540073618000008,172.9736848
HAK1,0.7527910685805422,0.8644688644688645,0.2675736961451247,0.13553113553113552,0.21708683473389356,714,37.576155171,43.73401913599997,1773.2695866
HBLT,0.6573357483945331,0.9202397418165053,0.4693726937269373,0.07976025818349469,0.33381456528713505,6234,47.065327293,12.857577403999985,2611.7223416
HEI1,0.6337543053960965,0.7855787476280834,0.4626582278481013,0.2144212523719165,0.36332574031890663,2634,65.380845809,-14.540945615,287.9516574
HEIL,0.80874653526332,0.9432471264367817,0.17141049968374447,0.05675287356321839,0.13636363636363635,4554,53.156717106,6.984078608999994,42.7994792
HERE,0.7711442786069651,0.9011627906976745,0.13837638376383765,0.09883720930232558,0.12885154061624648,714,51.186303523,4.84032610700001,73.8937945
HINI,0.7014218009478673,0.8809523809523809,0.3549107142857143,0.11904761904761904,0.27,700,39.368788385,41.695788193,1742.7056903
HLNI,0.6368286445012789,0.8006430868167203,0.12388392857142858,0.19935691318327975,0.1350451735615787,2103,37.348556994,14.871945859999984,133.2808116
HOL2,0.6314168377823409,0.7844387755102041,0.26885406464250733,0.21556122448979592,0.254069355980184,2826,54.372922593,10.156797240000005,47.657327
HOLA,0.6478060046189376,0.75,0.18170103092783504,0.25,0.19830949284785435,3076,43.969753938,3.2215646839999863,759.7968365
HOOG,0.7569444444444444,0.8944201312910285,0.19664983937586047,0.10557986870897156,0.1697381183317168,6186,52.748989772,6.573146252000015,59.3364881
HOUT,0.7393364928909952,0.8524590163934426,0.14335060449050085,0.14754098360655737,0.14435695538057744,762,51.01768749,5.374207371000011,103.136011
HRUB,0.7010785824345147,0.959915611814346,0.4959677419354839,0.04008438818565401,0.3185550082101806,1218,50.804695053,23.88628896900002,234.4700329
HSON,0.6052631578947368,0.9252873563218391,0.3648148148148148,0.07471264367816093,0.29411764705882354,714,40.041647256,42.167328059,1592.4102727
HULV,0.6245421245421245,0.7628635346756152,0.05004115226337449,0.2371364653243848,0.06286415210058265,6522,37.280287725,-6.913540528,116.1795394
IGNF,0.7326687811508836,0.8778501628664495,0.20405982905982906,0.12214983713355049,0.18092609628948175,6522,48.845630482,2.424314131000017,124.2103324
ILAW,0.7149220489977729,0.8746594005449592,0.2699228791773779,0.12534059945504086,0.22358078602620088,1145,53.587125044,19.567966306000017,162.8363941
INGP,0.6977777777777778,0.9040307101727447,0.2506125306265313,0.09596928982725528,0.20928443190561682,3899,42.382492433,13.315595239000004,731.8476089
INGR,0.6463314097279472,0.7313432835820896,0.15556768558951964,0.26865671641791045,0.18116554054054054,2368,41.828084003,12.514799610000011,104.4888967
IXSG,0.7207345065034431,0.8356002365464222,0.18687099725526074,0.16439976345357776,0.1806036615536863,6063,48.899398305,2.0640047800000048,153.5420683
JENB,0.6374501992031872,0.7741935483870968,0.1806049822064057,0.22580645161290322,0.1903765690376569,1434,47.388521823,11.777823147999982,593.7166969
JERE,0.43956043956043955,0.6060606060606061,0.2159090909090909,0.3939393939393939,0.24401913875598086,209,38.320045599,-6.779430028,501.9748014
JOAN,0.7237479806138933,0.701095461658842,0.101546738399462,0.29890453834115804,0.16086547507055504,4252,46.183960792,13.416061065999996,1190.464131
JOE2,0.6314271984622778,0.7670753064798599,0.23919915700737618,0.2329246935201401,0.2375348405078972,6458,62.391131257,30.096178130999988,113.7799813
KALI,0.7519747235387044,0.8292682926829268,0.18980667838312829,0.17073170731707318,0.18341121495327103,856,51.7538794,18.095169467999995,147.7399166
KAY1,0.7373913043478261,0.8724279835390947,0.25477707006369427,0.12757201646090535,0.211484593837535,714,38.713667018,35.503071549000026,1117.8914334
KDA1,0.6837857666911226,0.5810473815461347,0.043359196713829304,0.41895261845386533,0.14400267290344138,2993,46.065048943,13.560844884000003,858.0406358
KEGA,0.6565143824027073,0.9107981220657277,0.3552123552123552,0.0892018779342723,0.2777017783857729,2193,48.240748996,-3.433386117,222.5661896
KIBG,0.6792452830188679,0.8888888888888888,0.16619718309859155,0.1111111111111111,0.1559633027522936,436,47.448721009,12.30899931099998,877.6182982
KINL,0.7142857142857142,0.8710801393728222,0.63671875,0.1289198606271777,0.3683241252302026,543,58.458771087,-5.052333508,64.977728
KINT,0.5901173124777818,0.7852412488174078,0.3989659629470056,0.21475875118259224,0.3413262285375962,3378,57.245371894,-2.328678227,141.2905447
KIRK,0.6902263942573165,0.8344459279038718,0.32077318326400783,0.16555407209612816,0.2657088727502368,6334,54.839549215,-4.047370755,67.0682764
KIRU,0.6545924967658473,0.8174474959612278,0.15668031261630072,0.1825525040387722,0.16152450090744103,3306,67.85735156,20.96844729899999,391.0553685
KIS1,0.6559714795008913,0.773109243697479,0.2920168067226891,0.226890756302521,0.2703081232492997,714,39.143383371,34.16313186899998,1030.282013
KIV2,0.5259562841530054,0.7250470809792844,0.267578125,0.2749529190207156,0.2690965490500194,2579,62.819907409,25.701937188999977,217.005094
KLGN,0.6870229007633587,0.7627118644067796,0.09854014598540146,0.23728813559322035,0.12312312312312312,666,46.615279402,14.309157441000025,526.1397206
KLNK,0.6352689322986353,0.8430397727272727,0.22330856472428628,0.15696022727272727,0.20898497393437596,6522,52.128186398,29.33151528899998,162.9865277
KOL2,0.8158244680851063,0.955607476635514,0.16402640264026402,0.04439252336448598,0.1284191006026889,4314,53.179111317,6.724380247999989,42.7566452
KOS2,0.7060889929742389,0.9348837209302325,0.4275092936802974,0.06511627906976744,0.2916908773968623,1721,54.122554577,17.98157762400001,211.1364369
KRA1,0.6659321286910533,0.8668961560527826,0.273482428115016,0.13310384394721744,0.23547685616651134,6438,50.066114169,19.92046373300002,267.1097855
KUU2,0.5610738255033557,0.8326693227091634,0.32367972742759793,0.16733067729083664,0.2889969067609368,2263,65.910223724,29.033568683999988,379.2198695
LABG,0.5,0.3684210526315789,0.007272727272727273,0.631578947368421,0.047619047619047616,294,40.445846111,-3.710130799,763.8731577
LAPE,0.6803594351732991,0.7681159420289855,0.1546203110704483,0.2318840579710145,0.17315716272600834,1438,46.672158802,-0.148974177,200.2356681
LARN,0.0,0.0,0.3218390804597701,1.0,0.4380952380952381,105,41.728071298,12.83304906799998,420.4394866
LCAN,0.6732782369146006,0.7474006116207951,0.16481876332622603,0.25259938837920487,0.1875098814229249,6325,44.978233896,-1.075609602,73.2698255
LCRA,0.6199226305609284,0.7309007981755986,0.10021865889212828,0.2690992018244014,0.12348782403770621,6365,41.426430742,15.438238915,197.5195897
LCVA,0.6997389033942559,0.8096676737160121,0.15904761904761905,0.1903323262839879,0.166545981173063,1381,45.768298953,0.1888165500000127,181.115074
LEEU,0.7623529411764705,0.8663101604278075,0.13217391304347825,0.13368983957219252,0.1325459317585302,762,50.753914833,4.2541767710000045,90.2443514
LEGN,0.6629422718808193,0.853035143769968,0.23624934520691462,0.14696485623003194,0.21420118343195266,2535,51.200010719,16.154973942000026,181.3179913
LEIB,0.5664739884393063,0.6712328767123288,0.1259259259259259,0.3287671232876712,0.15690376569037656,1434,46.77983728,15.547068677000029,333.6481203
LERM,0.6554847366655484,0.8141666666666667,0.1567251461988304,0.18583333333333332,0.1622432859399684,6330,42.026658382,-3.756787814,926.2411028
LICF,0.6343424787133396,0.8156934306569343,0.26639519931418776,0.1843065693430657,0.2450079239302694,6310,52.709981381,-1.813727939,129.3750208
LIFF,0.6674182638105975,0.8654970760233918,0.2273972602739726,0.13450292397660818,0.20528879610299233,1437,48.213764167,-1.509963113,162.5017513
LIZ2,0.7834602829162133,0.8845208845208845,0.15019762845849802,0.11547911547911548,0.14023960535588442,1419,49.023476552,3.036903154000015,111.5305569
LLEI,0.6121648136036625,0.6332882273342354,0.055912484806389995,0.36671177266576455,0.09125884887657741,6498,41.62928922,0.5962965520000125,254.3193315
LMR1,0.7153951576062129,0.9125874125874126,0.373806275579809,0.08741258741258741,0.2680722891566265,2324,52.673992971,-8.575693783,82.6859767
MADR,0.6449864498644985,0.7818659658344284,0.08668675766708031,0.21813403416557162,0.10231177756950953,6402,40.42916188,-4.249659114,829.4705613
MAR5,0.7282179247244749,0.9138830897703549,0.2795593635250918,0.0861169102296451,0.21779703382769539,6001,50.089981597,4.510613073000002,210.3077623
MAR7,0.6985399370168909,0.8501742160278746,0.1647336347552585,0.14982578397212543,0.16145354185832567,6522,60.595056325,17.258448412000007,74.3925641
MATZ,0.6117775354416577,0.7030075187969925,0.08738042678440029,0.29699248120300753,0.11421238370227783,6234,40.649064314,16.704549844999974,534.4242828
MAUP,0.7764976958525346,0.8685567010309279,0.14088669950738916,0.13144329896907217,0.1382751247327156,1403,48.523873095,0.5374252810000257,309.2007058
MDNR,0.6474576271186441,0.7468230694037146,0.10797060486150367,0.25317693059628543,0.13143759873617694,6330,41.888788978,-5.048673547,811.4893081
MEIX,0.7251461988304093,0.8387096774193549,0.2250740375123396,0.16129032258064516,0.20455306327418815,2987,49.624016773,5.4440839630000255,369.5033489
MELA,0.7659574468085107,1.0,0.16058394160583941,0.0,0.12716763005780346,173,41.706034905,15.127099084999998,162.9723007
METS,0.6245210727969348,0.7893462469733656,0.17983490566037735,0.2106537530266344,0.1858700806069227,4218,60.217471914,24.39531963399997,94.5795964
MFNL,0.4895104895104895,0.4088785046728972,0.05628140703517588,0.5911214953271028,0.15095119933829612,2418,37.790694203,12.92226896599999,704.0096189
MGBU,0.7111913357400722,0.6494505494505495,0.08669897684437264,0.3505494505494505,0.17347307553306832,2767,45.904126194,11.781333513999982,1516.4377206
MIE2,0.7332832456799399,0.9121495327102803,0.27065026362038663,0.08785046728971962,0.21219366407650928,1673,50.291198228,21.438001526999983,224.536304
MIIS,0.7297297297297298,0.75,0.14102564102564102,0.25,0.17543859649122806,114,63.554746803,27.190747027999976,123.0770908
MIKA,0.8536585365853658,0.8974358974358975,0.10666666666666667,0.10256410256410256,0.10526315789473684,114,61.771101989,23.05220856,127.5774978
MIM1,0.8050749711649365,0.9381720430107527,0.20827389443651925,0.06182795698924731,0.157502329916123,1073,52.181305652,21.559261246999995,200.7205918
MKUO,0.75,0.9,0.17857142857142858,0.1,0.15789473684210525,114,62.887584475,27.68983423399999,123.4135185
MKUU,0.0,0.0,0.0,0.0,1.0,18,66.370190139,29.31166580500002,199.4662461
MLG1,0.6871536523929471,0.8754813863928113,0.3436065573770492,0.1245186136071887,0.26953125,2304,53.52445621,-7.334606836,157.2639702
MLLC,0.7229299363057325,0.7964912280701755,0.1848605577689243,0.20350877192982456,0.19068493150684931,1825,43.223669102,-0.876863367,236.0565985
MO00,0.6622222222222222,0.8530534351145038,0.2453074433656958,0.14694656488549618,0.22039632672788786,2069,45.715692925,4.067811457000005,435.5912135
MOH2,0.7726199842643587,0.9264150943396227,0.26191723415400736,0.07358490566037736,0.19467834287638935,2969,50.54029593,5.1919886520000205,180.9052585
MOJN,0.6692947875602278,0.7784004075394804,0.23958101181190106,0.2215995924605196,0.23410852713178296,6450,54.944320492,8.805387309000025,57.1337681
MOL0,0.733009708737864,0.8162162162162162,0.1317157712305026,0.1837837837837838,0.14435695538057744,762,51.182560154,5.117056343000002,83.5508222
MOL1,0.543046357615894,0.5942028985507246,0.24848484848484848,0.4057971014492754,0.2948717948717949,234,36.805583889,22.850798021000003,248.4081982
MOL3,0.6377396569122099,0.5951035781544256,0.10495626822157435,0.4048964218455744,0.18864950078822912,1903,43.720340078,2.3408728399999745,596.2448843
MONS,0.656964656964657,0.7348837209302326,0.11380400421496312,0.2651162790697674,0.14175257731958762,1164,46.548549394,3.285581332999982,312.9837117
MPEL,0.0,0.0,0.0,0.0,1.0,18,66.778091968,23.973963228,114.4757571
MPNC,0.7785714285714286,0.7569444444444444,0.16875,0.24305555555555555,0.20394736842105263,304,38.146502045,15.352856100999986,471.1364072
MPUD,0.7356321839080459,0.8205128205128205,0.21333333333333335,0.1794871794871795,0.20175438596491227,114,65.361029288,26.999230797,139.833609
MPUO,0.8266666666666667,0.8611111111111112,0.10256410256410256,0.1388888888888889,0.11403508771929824,114,64.868020494,27.675311185999988,198.721342
MSAG,0.0,0.0,0.0,0.0,1.0,18,41.712123482,15.909690608000004,881.2742822
MSRT,0.6905759162303665,0.7926682692307693,0.17965228589826143,0.20733173076923078,0.18693658073699193,6323,45.541424976,1.5213799879999783,566.2097053
MT01,0.7387459807073955,0.8661639962299718,0.1783081783081783,0.13383600377002827,0.16624040920716113,3910,45.748709927,12.200560012999972,98.7248415
MTAI,0.8169014084507042,0.90625,0.12195121951219512,0.09375,0.11403508771929824,114,65.571029267,28.228518624999992,242.4582649
MTBT,0.730610952833175,0.8290229885057471,0.19934959349593495,0.17097701149425287,0.19050817103201254,4467,48.490315462,4.564019222000013,227.0762984
MTGR,0.5789473684210527,0.41509433962264153,0.007518796992481203,0.5849056603773585,0.17204301075268819,186,37.894253036,12.76257943600001,793.0396326
MTTO,0.654320987654321,0.6570247933884298,0.0832517140058766,0.34297520661157027,0.1330166270783848,1263,42.455502827,12.992744592000008,1738.086017
MUEN,0.7115677321156774,0.8930276981852913,0.24221972253468316,0.1069723018147087,0.2040926225094238,3714,47.42111842,11.832350755999984,599.4353324
MULH,0.688330871491876,0.797945205479452,0.1769499417927823,0.20205479452054795,0.1833188531711555,1151,47.739423905,7.320839229000001,298.3680886
MVEL,0.6542056074766355,0.7980456026058632,0.21366594360086769,0.20195439739413681,0.21074043938161108,1229,40.181065456,-8.679104773,125.3741418
MYSZ,0.7741935483870968,0.9767441860465116,0.27325581395348836,0.023255813953488372,0.18992248062015504,258,53.38653062,21.343573381,169.3242034
NAMR,0.7309313913376774,0.9098282442748091,0.2776508226691042,0.09017175572519084,0.2169344870210136,6472,50.469526444,4.860644287000014,159.3557524
NCAS,0.6682070240295749,0.8817073170731707,0.3633703920421299,0.11829268292682926,0.28390668248319495,2529,54.979126697,-1.616572045,125.8672467
NEM2,0.6356132075471699,0.6393831553973903,0.10254735467015023,0.36061684460260973,0.15825864276568502,3905,41.717722107,12.717644764,654.7175328
NEWR,0.7729468599033816,0.8791208791208791,0.0891089108910891,0.12087912087912088,0.09494949494949495,495,52.266805937,0.4152659409999728,75.8481852
NIVO,0.6635071090047393,0.726643598615917,0.17413905133203378,0.27335640138408307,0.20122815304676428,2117,45.555610616,5.310186245000011,364.7172476
NNOV,0.5211267605633803,0.5162790697674419,0.15015015015015015,0.48372093023255813,0.23155505107832008,881,56.291805655,44.03421610700002,178.5750928
NOHA,0.7322946175637393,0.8580912863070539,0.2073732718894009,0.14190871369294605,0.18777943368107303,4026,53.464499933,8.48809066299998,56.8466492
NOR7,0.7524940617577197,0.9,0.19176262178919398,0.1,0.16602931803696622,3138,58.59014224,16.246374849000006,40.5995913
NORG,0.7849999999999999,0.9373134328358209,0.1879278158058494,0.0626865671641791,0.1510759771629337,4554,53.090060213,6.430970914999989,57.3305898
NOVR,0.7557677008750994,0.8535489667565139,0.15231340763255657,0.14645103324348607,0.15071183112420225,4074,45.447211128,8.613969967000003,218.6254177
NPAZ,0.6354775828460039,0.7025862068965517,0.1327334083239595,0.2974137931034483,0.16681534344335414,1121,43.139646812,20.519298316000004,549.5333041
NSDL,0.6441495778045839,0.8240740740740741,0.1391812865497076,0.17592592592592593,0.14503441494591937,2034,47.951961951,16.835372543999995,190.4877718
NTML,0.7536636427076063,0.8667736757624398,0.2459016393442623,0.1332263242375602,0.20511330621731552,1721,52.320794779,16.118029562000004,126.6184273
NWMR,0.7031674208144796,0.9316546762589928,0.406929347826087,0.0683453237410072,0.2844752818733738,2306,52.209981279,-8.994645233,231.1228679
OAK1,0.6984126984126985,0.9565217391304348,0.17142857142857143,0.043478260869565216,0.1484375,256,51.117613723,-0.905123654,139.6255903
OBE4,0.7017787017787017,0.836453744493392,0.21230243485689876,0.16354625550660792,0.19867651585103108,6498,48.084806089,11.27785888699998,650.4951557
OBWT,0.7054038349796631,0.8252889191026512,0.1513092144713172,0.17471108089734874,0.1566265060240964,6474,47.289212156,16.212940507999974,381.5633159
OISO,0.7321428571428571,0.9111111111111111,0.23008849557522124,0.08888888888888889,0.189873417721519,474,48.137589123,1.9696677939999745,193.0430396
OLOS,0.8095238095238095,0.918918918918919,0.16883116883116883,0.08108108108108109,0.14035087719298245,114,67.924163368,23.81915196800003,489.4181075
ORTE,0.6498939072446196,0.8454258675078864,0.18252759802055576,0.15457413249211358,0.17709291628334867,6522,42.475022186,12.33968074400002,119.4209677
OSK6,0.6776683524088368,0.8293159609120521,0.19121499093290348,0.17068403908794788,0.1863650353955063,6498,57.065675733,15.996866591000014,150.2472803
OSTA,0.7376943005181347,0.8493661446681581,0.22076978939724037,0.1506338553318419,0.1978021978021978,4095,44.692341233,7.1883464890000255,1309.4252979
OUL2,0.5962025316455697,0.8658088235294118,0.27764127764127766,0.13419117647058823,0.24738270647537805,2579,65.086383738,25.89254683000001,82.5706749
PAOL,0.5822021116138762,0.7108655616942909,0.10700808625336927,0.289134438305709,0.13026099224077123,4253,41.031206265,14.567486917999986,714.5867825
PARR,0.7640117994100295,0.7812971342383107,0.11896668932698844,0.2187028657616893,0.14995313964386128,6402,45.776903028,11.12303356299998,875.7461267
PAT2,0.681948424068768,0.6587820835430297,0.13390875462392107,0.3412179164569703,0.20208540218470705,6042,47.208003273,11.460185051999986,2298.3386584
PER4,0.7687614399023796,0.8355437665782494,0.22646536412078153,0.16445623342175067,0.20159574468085106,1880,49.185315537,-1.411275267,87.3713854
PESS,0.7321428571428571,0.6507936507936508,0.18181818181818182,0.3492063492063492,0.2803738317757009,107,44.806155041,-0.606734006,86.9317845
PIN4,0.7565543071161049,0.8347107438016529,0.1048951048951049,0.1652892561983471,0.11818181818181818,550,44.88887061,7.346540464999975,427.8127665
PINS,0.6382252559726962,0.8594878529218647,0.2540508101620324,0.14051214707813525,0.2275375651640601,6522,52.110635689,26.09334765,180.2517147
POS2,0.7966101694915254,0.9325396825396826,0.16863130320890635,0.06746031746031746,0.13908205841446453,4314,53.301952394,6.740197362999993,42.2421516
POZ1,0.7148876404494383,0.8656462585034014,0.2768839966130398,0.13435374149659865,0.22950819672131148,1769,52.430055237,16.934946836999984,171.3483794
POZE,0.6022514071294558,0.6202898550724638,0.10569105691056911,0.37971014492753624,0.15880149812734082,5340,45.332823089,17.675464922000003,212.502019
PRAT,0.6451948051948052,0.890961262553802,0.2389763779527559,0.10903873744619799,0.2109978375038616,6474,43.885561646,11.099125689000005,119.9645928
PREC,0.7118790496760259,0.860125260960334,0.18116927260367097,0.13987473903966596,0.17102564102564102,3900,42.84531956,13.039863905999994,1197.7359323
PRO2,0.372093023255814,0.463768115942029,0.4303030303030303,0.5362318840579711,0.46153846153846156,234,41.068440364,23.38697803700001,65.6304232
PTRJ,0.6650876361913785,0.7995444191343963,0.2140266021765417,0.20045558086560364,0.21047930931824949,3359,41.364340105,14.528889300999992,1113.1001702
PUEC,0.5109983079526227,0.7864583333333334,0.19180201082753287,0.21354166666666666,0.19461279461279463,1485,43.693364588,3.314375601999984,255.9756761
PULJ,0.5586510263929619,0.594383775351014,0.12837837837837837,0.40561622464898595,0.1821482602118003,3305,59.769588185,30.32206067599998,93.8078416
QNSN,0.5373134328358209,0.75,0.06841817186644773,0.25,0.07960965588084232,1947,43.722262548,6.028109023000013,618.5883086
RANU,0.7954759660697455,0.9329403095062638,0.17516421645292463,0.06705969049373618,0.1429512516469038,4554,53.332778253,6.500935502000004,43.7058801
RES2,0.7635402906208719,0.8731117824773413,0.18741450068399454,0.1268882175226586,0.16854990583804144,1062,50.521113309,1.7843356359999802,74.4709616
RIGA,0.6460831844858382,0.775260257195346,0.21070026853955795,0.224739742804654,0.21424158171146124,6474,56.948619626,24.058773831,34.7094469
RKSK,0.7486238532110092,0.8947368421052632,0.26713947990543735,0.10526315789473684,0.21044546850998463,651,55.95793433,25.58716241100001,170.9937947
RMRA,0.656326932545544,0.9148936170212766,0.2597508678782928,0.0851063829787234,0.21970412338684292,6354,42.203521819,13.520245245000012,1333.0986213
ROM2,0.5448963929393708,0.7959641255605381,0.32597402597402597,0.2040358744394619,0.2985901309164149,1986,64.2173612,29.93180802500001,243.0018244
ROVN,0.7677886663826161,0.9142567224759005,0.20344599072233266,0.08574327752409944,0.1677439212065251,6498,52.606295052,6.107910418000017,44.5843619
RST2,0.5560975609756097,0.6129032258064516,0.05069124423963134,0.3870967741935484,0.07724957555178268,1178,43.940956859,5.4836980669999775,1069.8342177
RTNK,0.5883597883597884,0.8152492668621701,0.2982616651418115,0.18475073313782991,0.2712691771269177,1434,47.17013498,12.64100075099998,2214.7598022
RUMI,0.6600934094447327,0.9008498583569405,0.43754674644727,0.09915014164305949,0.3206069505628977,4086,45.717127401,7.198684637999975,1329.4381933
RVNE,0.6835978835978836,0.8777173913043478,0.3727072633895818,0.12228260869565218,0.2848975702715579,2099,50.605049833,26.26162188299997,260.94271
RYO2,0.7128491620111733,0.8575268817204301,0.19047619047619047,0.1424731182795699,0.1781011781011781,1443,46.693187668,-1.428895183,127.1884724
SACS,0.943089430894309,0.9830508474576272,0.05825242718446602,0.01694915254237288,0.043209876543209874,162,42.849044332,11.909684148999986,835.4974489
SAFF,0.5865724381625441,0.6974789915966386,0.15055762081784388,0.3025210084033613,0.1780821917808219,657,43.955465512,2.895898959000021,425.1912064
SAM3,0.2516556291390728,0.5757575757575758,0.09476707083599234,0.42424242424242425,0.10485617073925146,3233,37.792772054,26.705335940999987,68.6558618
SAM6,0.7005076142131981,0.8518518518518519,0.4104803493449782,0.14814814814814814,0.30179028132992325,391,46.053407823,6.698647404999974,1686.6245797
SANR,0.6270072992700729,0.7844748858447489,0.14658709436777323,0.21552511415525114,0.1582778380052656,6457,42.339650264,-1.93920097,361.5210257
SAR4,0.6827794561933536,0.837037037037037,0.2234185733512786,0.16296296296296298,0.2073050345508391,2026,45.169458351,1.152968714999986,264.4444195
SARN,0.6706524564595789,0.6508577194752775,0.12732506643046945,0.3491422805247225,0.19498307171437365,6498,46.418733325,11.141627348999975,1049.6859529
SASG,0.7295459530598817,0.8794288736118456,0.23530789042378833,0.12057112638815441,0.20009737098344693,6162,51.229409917,3.8089868910000177,69.3276726
SATI,0.5827814569536424,0.6285714285714286,0.13028169014084506,0.37142857142857144,0.17796610169491525,354,46.220142047,6.035094080000022,520.440758
SAVI,0.7221510883482716,0.7683923705722071,0.1476179825542384,0.23160762942779292,0.17205835712020298,6306,44.647638465,7.660668217000023,380.4171874
SAVU,0.5605786618444846,0.8201058201058201,0.31054977711738485,0.17989417989417988,0.2819025522041763,2586,67.960840909,28.955824339999992,265.2291381
SBGS,0.7613454351308062,0.9152759948652118,0.2204861111111111,0.08472400513478819,0.17830075787794175,2507,48.909971962,2.1674188339999887,110.5870405
SCHR,0.7579617834394904,0.7828947368421053,0.19545454545454546,0.21710526315789475,0.20430107526881722,372,40.190232564,16.085334379000017,859.4678612
SER1,0.6887306242144953,0.8404907975460123,0.20213498622589532,0.15950920245398773,0.1913961875321999,3882,44.731068472,8.853099728000018,251.1663221
SESS,0.7215189873417721,0.8260869565217391,0.1245136186770428,0.17391304347826086,0.13496932515337423,326,48.795554947,7.981303602000025,179.4444183
SEUR,0.923076923076923,0.8571428571428571,0.0,0.14285714285714285,0.05714285714285714,35,46.994270634,5.1515253420000136,245.1601143
SGTA,0.6868867082961642,0.8182784272051009,0.10686254779633729,0.18172157279489903,0.11878172588832488,5910,41.135602978,15.365312683000012,716.9081302
SHOD,0.6438463548471388,0.8700564971751412,0.30153452685421994,0.12994350282485875,0.255914382275629,5326,52.242855568,-2.88579924,153.374508
SIRI,0.6403940886699508,0.9701492537313433,0.45806451612903226,0.029850746268656716,0.32882882882882886,222,40.183515063,15.866437427999983,1144.1831153
SJPL,0.6923226433430515,0.9290558163797601,0.3270056497175141,0.07094418362023996,0.24960580258593504,6342,45.663247729,2.689638816000013,1029.0785246
SLDV,0.7454545454545454,0.7256637168141593,0.1141552511415525,0.2743362831858407,0.1686746987951807,332,39.671506073,16.281592400000022,308.5066791
SLG1,0.6659649122807018,0.7778688524590164,0.3878132118451025,0.22213114754098362,0.31989247311827956,2976,54.26328677,-8.475670206,114.1887629
SNAL,0.744,0.9789473684210527,0.4881889763779528,0.021052631578947368,0.2882882882882883,222,40.925461311,15.209155905999978,865.6649125
SNEO,0.644055694394859,0.8493408662900188,0.28469387755102044,0.15065913370998116,0.24912543728135933,4002,52.185960496,-0.111467988,122.374215
SNTG,0.6666666666666667,0.6918335901386748,0.20178282009724474,0.3081664098613251,0.2384492830589485,1883,42.885435946,-8.551718187,312.7342828
SODU,0.0,0.0,0.0,0.0,1.0,18,63.962573328,-19.585761267,788.1641805
SONS,0.6875852660300137,0.782608695652174,0.10508922670191673,0.21739130434782608,0.12479564032697547,1835,39.6753537,-3.963966928,808.9434437
SORG,0.6122840690978887,0.8274967574578469,0.27239709443099275,0.17250324254215305,0.2486919052016005,6498,42.374532834,1.1327537789999838,1284.501631
SPB2,0.6027397260273972,0.4888888888888889,0.031746031746031744,0.5111111111111111,0.12393162393162394,234,59.890645285,30.36148565299999,48.6400947
SPT0,0.7976628435403592,0.9270623742454729,0.17423908248786943,0.07293762575452717,0.14336093222937749,6522,57.714958627,12.891349169000025,219.9514569
SRNA,0.5833333333333333,0.6467391304347826,0.08875739644970414,0.3532608695652174,0.12435991221653256,1367,41.793158706,-0.162711772,355.0991381
STBZ,0.6822187662001037,0.8920018075011297,0.381952733349248,0.10799819249887031,0.2872539831302718,6402,46.898252136,11.42558391099999,1043.7200084
STIL,0.7892891297417914,0.9428789032749428,0.18080839247145944,0.05712109672505712,0.14514712340799296,4554,53.2615715,6.482017650999978,45.0823585
STJ9,0.7296195652173914,0.8808091853471842,0.21324011361153594,0.11919081465281575,0.1863877614736185,6406,48.621661814,7.68381776199999,237.1602024
STNW,0.8571428571428572,0.9375,0.21428571428571427,0.0625,0.14423076923076922,208,52.791812363,6.119950879999976,54.4015469
STVR,0.8132992327365728,0.8688524590163934,0.21212121212121213,0.13114754098360656,0.17632850241545894,414,45.753929,-0.237318243,77.7219627
TA05,0.713263358778626,0.8651620370370371,0.2046894803548796,0.13483796296296297,0.18601052305787683,6462,56.124278116,10.151995957999986,70.1480753
TA06,0.7120567375886526,0.8571428571428571,0.20422386483632524,0.14285714285714285,0.1876155268022181,6492,56.164803906,10.112072609999984,107.110045
TA10,0.7105578166147953,0.8548387096774194,0.19995821145006268,0.14516129032258066,0.18537258509659613,6522,56.109916522,10.075156434999997,130.3212165
TAF1,0.7022455526392534,0.7581863979848866,0.15294117647058825,0.24181360201511334,0.17747262297931515,5753,43.300639366,-0.35922328,270.9259345
TALR,0.670364500792393,0.7408056042031523,0.0512330338367425,0.2591943957968476,0.07169941399517407,5802,39.035085204,-5.235388182,498.913664
TALV,0.8163265306122448,0.851063829787234,0.07913669064748201,0.14893617021276595,0.0967741935483871,186,39.947322734,-4.942847705,458.3214695
TENA,0.774844259863542,0.913925822253324,0.20352,0.086074177746676,0.16666666666666666,4554,52.708905693,6.433580903999996,54.6310768
TENC,0.6732673267326732,0.8907469342251951,0.2880527210884354,0.10925306577480491,0.2386888273314866,6498,45.124570545,4.2874648690000186,936.4572942
TGKS,0.6545296922410055,0.8599088838268792,0.27487765089722677,0.14009111617312073,0.23933933933933935,3330,53.754824484,9.39157928999998,51.2503466
TGPA,0.7989556135770235,0.9386503067484663,0.1903409090909091,0.06134969325153374,0.14951456310679612,1030,53.108205488,7.365583188000016,47.8789965
TGST,0.6878751500600239,0.8514115898959881,0.2625,0.1485884101040119,0.22877254729432467,2273,53.6295441,9.526678415999982,50.6661457
TGTE,0.7668444013572467,0.9065902578796562,0.19350932429159604,0.09340974212034384,0.163772557030984,5874,53.292700489,7.396095527,52.6558654
THNV,0.7258225324027916,0.7964989059080962,0.14130434782608695,0.20350109409190373,0.15759312320916904,1745,49.363901092,6.170334806000028,212.2353497
THOC,0.6794871794871795,0.9298245614035088,0.8070175438596491,0.07017543859649122,0.43859649122807015,114,64.933716505,-16.675584829,750.1437672
TILM,0.7641430948419301,0.8891577928363988,0.20428893905191872,0.11084220716360116,0.17456896551724138,6496,50.582617349,5.566582987000004,302.4340684
TIT2,0.7546402237477753,0.8945147679324894,0.22603719599427755,0.10548523206751055,0.18723321691889794,5154,51.035233441,6.431579425999985,156.0960847
TITO,0.7582938388625592,0.9876543209876543,0.352112676056338,0.012345679012345678,0.22869955156950672,223,40.60125221,15.72370327599998,818.2269224
TJUC,0.8085377508760752,0.9463087248322147,0.16464363523187053,0.053691275167785234,0.13197189284145805,4554,53.271269739,6.882014346000005,44.6099537
TKM1,0.6074074074074075,0.6612903225806451,0.1813031161473088,0.3387096774193548,0.2222222222222222,954,56.967250508,23.152367664999986,99.7950744
TLIA,0.6414852752880922,0.7573696145124716,0.16073224703279018,0.24263038548752835,0.17794725135049252,6294,43.56144154,1.4805604339999832,209.2211103
TMPL,0.7044791942751126,0.8148375229920294,0.17213635401228033,0.18516247700797056,0.17548001259049417,6354,53.088693612,13.474688361000004,101.2382117
TORI,0.7197558268590455,0.7775779376498801,0.13164400494437578,0.2224220623501199,0.15486047224777674,6522,45.063367808,7.661281730999974,310.7386128
TORO,0.6426456071076011,0.7587412587412588,0.09448099415204679,0.24125874125874125,0.11437598736176935,6330,41.522445754,-5.391015402,806.9975006
TPMR,0.7145593869731801,0.8966346153846154,0.34599728629579374,0.10336538461538461,0.25845620121422375,2306,52.791840488,-7.843574754,190.7575226
TREU,0.7508369201339071,0.7647345348270823,0.12508391138957262,0.2352654651729177,0.1597669426556271,6522,46.067395229,11.14463648100002,389.4011702
TRF2,0.69224620303757,0.731418918918919,0.1428872497365648,0.2685810810810811,0.17712007360834228,6521,47.927964373,15.85891150499998,1092.4113702
TRNW,0.7479289940828403,0.8753462603878116,0.28378378378378377,0.12465373961218837,0.22350472193074503,953,50.016082033,20.98414611999999,277.0562578
TRSN,0.6692111959287532,0.7387640449438202,0.1549165120593692,0.2612359550561798,0.18131101813110181,1434,48.056623951,15.612415294000016,407.7025242
TUDO,0.6137184115523465,0.8415841584158416,0.12543073742246727,0.15841584158415842,0.1294615849969752,3306,45.593847824,27.66865450900002,64.2594758
TUR1,0.7724137931034484,0.8421052631578947,0.1232876712328767,0.15789473684210525,0.13253012048192772,498,51.312879515,4.9491005470000005,81.3590672
UBEN,0.6737400530503979,0.8509212730318257,0.15361158757385174,0.1490787269681742,0.1527713088029809,6441,41.130621408,14.777419676000022,210.4528616
UKMG,0.7181008902077151,0.852112676056338,0.24025974025974026,0.14788732394366197,0.2111111111111111,450,55.238707997,24.731861255000013,117.8901375
USAL,0.6545454545454545,0.7078651685393258,0.06612244897959184,0.29213483146067415,0.0947968638631504,1403,40.334917012,18.111490613,69.2013611
USDL,0.6942482341069626,0.8376623376623377,0.263177431328879,0.16233766233766234,0.2315333672949567,3926,49.432908748,22.58577374800001,529.8124228
VAE6,0.7431111111111111,0.9013477088948787,0.20848510820655666,0.09865229110512129,0.177246243483594,6522,58.693177823,12.035094241000024,169.9252632
VAL5,0.620026235242676,0.7591006423982869,0.13175122749590834,0.24089935760171305,0.1492614221916867,5822,41.318258747,22.56343551800001,189.0849085
VALC,0.6226415094339622,0.8461538461538461,0.17894736842105263,0.15384615384615385,0.17467248908296942,229,39.407613198,-7.248280088,529.9068841
VARM,0.7057919015889287,0.6645752895752896,0.12269772481040087,0.33542471042471045,0.1991672449687717,5764,46.457090022,12.565345250000007,2121.4456766
VCAH,0.7770700636942676,0.9838709677419355,0.2073170731707317,0.016129032258064516,0.15486725663716813,226,42.796141679,11.947503155999982,617.531873
VEIS,0.731457800511509,0.8461538461538461,0.28113879003558717,0.15384615384615385,0.23333333333333334,450,54.093940024,23.704448996999982,167.1879887
VEN2,0.658583280153159,0.8850771869639794,0.24579831932773108,0.11492281303602059,0.21511861680739847,2487,49.172722618,1.0470195920000265,206.9790885
VER4,0.6014598540145986,0.8917748917748918,0.2525458248472505,0.10822510822510822,0.22506183017312448,1213,45.211264988,3.229498437000018,944.9954331
VERN,0.7428940568475453,0.8900928792569659,0.21946308724832214,0.10990712074303406,0.18632958801498128,2136,49.098696356,3.672889349000002,132.1886628
VERR,0.6892185238784372,0.927458617332035,0.369002822201317,0.07254138266796495,0.2724389470345703,6306,45.664674149,7.690188407999983,458.2550753
VIGI,0.6385896180215476,0.8330494037478705,0.17034405385190726,0.16695059625212946,0.16973321067157313,6522,40.335875203,15.90201827200002,902.6660939
VIL6,0.6638755980861244,0.842185128983308,0.19415006358626535,0.15781487101669195,0.1862160371106693,3018,64.697803687,16.559912153000028,450.5640342
VISN,0.6054968287526428,0.7435098650051921,0.13965798045602607,0.2564901349948079,0.15880851063829787,5875,44.319857346,4.949220675999982,245.7116033
VLCH,0.7416688882964544,0.7568008705114254,0.12005519779208831,0.24319912948857453,0.15664403491755577,6186,46.607029224,13.85045254800002,572.0539982
VLPL,0.7373188405797102,0.7722960151802657,0.19252548131370328,0.22770398481973433,0.20567375886524822,1410,48.826675034,-1.234039812,258.5206531
VNOV,0.6424418604651162,0.6314285714285715,0.11037735849056604,0.36857142857142855,0.17446808510638298,1410,58.533564491,31.26083977899998,59.017055
VNTE,0.7435035157444206,0.8611898016997167,0.22341904100069493,0.1388101983002833,0.19557109557109556,4290,49.433528171,2.779883356000028,137.4429934
VONC,0.6197387518142234,0.8714285714285714,0.414568345323741,0.12857142857142856,0.32709113607990015,1602,64.673609535,-17.754415657,1082.2721862
VSLF,0.7358068842199372,0.8672286617492097,0.21330275229357798,0.1327713382507903,0.18887823585810162,6258,51.986063435,4.387698612000008,75.8298941
WALD,0.6866597724922441,0.8759894459102903,0.2565130260521042,0.12401055408970976,0.22004357298474944,2754,48.76029992,9.827864773999975,446.7113711
WEIN,0.7300613496932515,0.8771498771498771,0.18400687876182287,0.12285012285012285,0.1681528662420382,1570,47.813273063,9.657147547000022,565.421907
WEL2,0.6175200493522516,0.675894665766374,0.15976455749421906,0.3241053342336259,0.19878166078871434,6238,52.307487481,-0.624636121,97.6026279
WIL2,0.75118996105582,0.8976215098241985,0.22389463781749766,0.10237849017580145,0.1859036534109279,6186,51.682432182,4.397696347000021,53.9439287
WLBH,0.5952,0.6138613861386139,0.17871222076215507,0.38613861386138615,0.23778195488721804,1064,48.415170699,7.3512979340000015,819.0874591
WLBR,0.7433155080213903,0.8910256410256411,0.45664739884393063,0.10897435897435898,0.2917933130699088,329,50.767972936,16.280076301999998,509.745348
WT21,0.7062107466852756,0.8576271186440678,0.19730679156908665,0.1423728813559322,0.18320278503046128,2298,49.145120968,12.87649976199998,657.3767346
WTZ3,0.7166454891994918,0.8623853211009175,0.2045977011494253,0.13761467889908258,0.18629908103592313,2394,49.14478852,12.87863047899998,663.4289919
YEB1,0.6891054030115146,0.7353497164461248,0.08203732503888025,0.2646502835538752,0.11318929377620122,3101,40.523781519,-3.090193477,975.3394989
YSDN,0.7269709543568464,0.9182389937106918,0.27423167848699764,0.08176100628930817,0.2144020853698273,6138,50.789467569,5.712299625000014,102.9166705
ZELZ,0.7449856733524357,0.8666666666666667,0.11734693877551021,0.13333333333333333,0.12059620596205962,738,51.192455044,3.805255382999974,63.7424654
ZFRA,0.7156398104265402,0.798941798941799,0.08668076109936575,0.20105820105820105,0.10572687224669604,1135,38.426014804,-6.410038213,587.4240131
ZGZA,0.6765799256505577,0.8666666666666667,0.14230019493177387,0.13333333333333333,0.1407766990291262,618,41.652303464,-0.876221803,276.7837134
ZUER,0.6294642857142857,0.7621621621621621,0.10777385159010601,0.23783783783783785,0.126044039483675,2634,41.86635622,-0.790411445,339.1551369
ZUGG,0.4948002189381499,0.4870689655172414,0.1724537037037037,0.5129310344827587,0.2622159090909091,3520,47.42076501,10.984606224999991,2991.9578915
ZYWI,0.7463917525773196,0.8418604651162791,0.2976588628762542,0.15813953488372093,0.23929961089494164,514,49.686690815,19.205954193000025,412.7790916
